---
- uuid: 7923bf34-c695-4c0d-946f-0d77594d622a
  space: b65
  title: Homies Tacos
  latitude: 35.7533507
  longitude: -118.4252625
#   description: |-
#       For $40, you can include a custom description here. Descriptions may
#       be 400 characters in length and include one image, e.g. as a coupon
#       <img src="/img/octicons/file-media.svg" height="120" width="120" referrerpolicy="no-referrer" loading="lazy" decoding="async" alt="sample" />
#   icon: "/img/markers/store.svg"
# - uuid: 6a9f5cb1-beac-4164-ac58-1caf1374ea7b
#   space: b64
#   latitude: 35.7533367
#   longitude: -118.4252759
# - uuid: fb5eea4f-7fe9-4562-89f6-e8c5ac879338
#   space: b63
#   latitude: 35.7533721
#   longitude: -118.4253281
# - uuid: f7309291-ec70-411a-8b38-9b1f6adf0c69
#   space: b62
#   latitude: 35.753409
#   longitude: -118.4252852
# - uuid: 4860d6e6-183b-472d-b6d8-6e60de8d6562
# - uuid: eddy-out
#   space: b61
#   title: Eddy Out Tap House & Grill
#   latitude: 35.7534569
#   longitude: -118.4252805
#   description: |-
#     <h5>Eddy Out has a booth in town!</h5>
#     <blockquote>We're selling Poke Bowls and Elote Bowls! Let's raise some money for the fireworks! We're at the booth from 9am&mdash;6pm Sat. &amp; Sun.</blockquote>
#     <img src="https://i.imgur.com/Cu9Qthnm.jpg" height="320" width="240" loading="lazy" decoding="async" crossorigin="anonymous" referrerpolicy="no-referrer" alt="Poke Bowl" />
# - uuid: 81bdbdac-6a36-4028-8163-631fab7bd06a
#   space: b60
#   latitude: 35.7534244
#   longitude: -118.4253117
# - uuid: 1c9f0734-34f1-41c3-8d53-f610c7ffb8de
#   space: b59
#   latitude: 35.7534792
#   longitude: -118.4253756
# - uuid: 9bf09249-3df7-4595-999d-9f6022641e2c
#   space: b58
#   title: Grumpy Bear Retreat
#   latitude: 35.7535265
#   longitude: -118.4253703
- uuid: 9580a171-65d5-4f21-8049-07056dbff985
  space: b57
  title: American Legion
  latitude: 35.7535231
  longitude: -118.4253371
- uuid: 3aea9384-04fb-4d23-aa94-aa7e8cf73ee2
  space: b56
  title: Bakersfield Rehabilition Hospital
  latitude: 35.753563
  longitude: -118.4253817
# - uuid: e86a5be6-7f99-4b15-8231-f4d84a62ff7c
#   space: b55
#   latitude: 35.7536391
#   longitude: -118.4252664
- uuid: 112e7469-a530-40dc-9fd8-a97bdcd5cbac
  space: b54
  title: Buujee Babes Boutique
  latitude: 35.7536156
  longitude: -118.4253917
- uuid: 4f8ef2df-0400-43d9-b831-98d561453013
  space: b53
  title: JS Style
  latitude: 35.7536552
  longitude: -118.4253151
- uuid: 62d97756-cb2d-41d9-8e38-6be085481c70
  space: b52
  title: Vivo Enterprises Inc
  latitude: 35.7537643
  longitude: -118.4253474
- uuid: b5d894a3-888e-4253-bbd8-c2e31806d5b9
  space: b51
  title: Boy Mom Crafts
  latitude: 35.7537228
  longitude: -118.425382
- uuid: c72d3ad0-ca08-4d8d-8a74-abfcd96c2b49
  space: b50
  title: Alligator Rose
  latitude: 35.7538336
  longitude: -118.4253263
- uuid: 73ebc474-acfb-4436-bb66-772a6d25ba30
  space: b49
  title: Branch & Vine
  latitude: 35.7537543
  longitude: -118.4253903
- uuid: e2332004-801c-4abb-87ac-bc07fbfc872f
  space: b48
  title: Jam Packed with Love
  latitude: 35.753902
  longitude: -118.4252941
- uuid: a71a71b5-e98a-44b2-aaa4-4e6c98a26224
  space: b47
  title: Soldiers for Jesus
  latitude: 35.7540265
  longitude: -118.4253732
# - uuid: df17c801-d229-49ba-8480-dd72b27ed723
#   space: b44
#   latitude: 35.754099
#   longitude: -118.4253071
# - uuid: e61ccf8e-6b7b-45bf-86d8-767071962289
#   space: b45
#   latitude: 35.7540912
#   longitude: -118.4253776
- uuid: 0e9f9544-70db-4a33-8bf5-49ec3d7c1857
  space: b46
  title: Kern Valley Search & Rescue
  latitude: 35.7540583
  longitude: -118.4253544
# - uuid: 473ef53e-f9aa-436d-81ca-b2868501f11b
#   space: b43
#   latitude: 35.7541578
#   longitude: -118.4253241
- uuid: 3b3db32c-56c1-4620-a583-d03c4e1b32a0
  space: b42
  title: Paul's Products
  latitude: 35.7541588
  longitude: -118.4253709
- uuid: 4e5d5a28-b1fe-410b-972c-0aebc78c35df
  title: TCM International
  space: b41
  latitude: 35.7541784
  longitude: -118.42529
- uuid: 34356578-991a-4a6d-bebc-101b39b3f673
  space: b40
  title: bigfishtackle.com
  latitude: 35.754194
  longitude: -118.4253353
- uuid: c4300085-358a-4f62-998b-cf7f15724a85
  space: b39
  title: Wounded Heros Fund
  latitude: 35.7542002
  longitude: -118.4253121
- uuid: eccfe87f-8f82-4e0a-8a7d-28e7f6b2816f
  space: b38
  title: Duel F Ranch
  latitude: 35.7542521
  longitude: -118.4253036
- uuid: 89072235-76c4-43b5-aa41-93a4339a2f88
  space: b37
  title: Jerky Hut
  latitude: 35.7543114
  longitude: -118.425299
# - uuid: 2c0d11af-65b0-4900-8a07-7a8b8d59e7f1
#   space: b36
#   latitude: 35.7543434
#   longitude: -118.4252779
# - uuid: 8226d6eb-d025-4241-b88a-a5ca80fe4340
#   space: b35
#   latitude: 35.7543456
#   longitude: -118.4252395
- uuid: b9c2b83d-982d-4b9f-a3de-9cb45cef04e4
  title: Lemonade Stand
  space: b34
  latitude: 35.7548411
  longitude: -118.4249732
- uuid: 7966bb80-0564-4005-951c-ad7549054ea8
  space: b33
  title: Skyes Purses
  latitude: 35.7547993
  longitude: -118.424944
- uuid: fa7a76d4-320c-47d1-b857-4be54d4b0a71
  space: b32
  title: Elora + Echo
  latitude: 35.754753
  longitude: -118.4248856
- uuid: b8fbf123-b1f4-44e8-9a60-49cb5f1d2515
  space: b31
  title: Western Art & Fab
  latitude: 35.7548117
  longitude: -118.4248667
# - uuid: fdf48f0f-358b-4138-a8b2-0145d28e3f11
#   space: b30
#   latitude: 35.7548341
#   longitude: -118.424877
- uuid: 6ed85f21-6a52-4a95-86d8-1a637c46aa9c
  space: b29
  title: Trendy Bitz
  latitude: 35.7548498
  longitude: -118.4247733
# - uuid: d70d855d-4bee-44ae-80e6-e1afa84e3c81
#   space: b28
#   title: Bug and Graci
#   latitude: 35.754861
#   longitude: -118.4247782
- uuid: 9cc9181b-a1db-419b-9f2e-344e94c6f80c
  title: Helping Hands & Heels
  space: b27
  latitude: 35.7549106
  longitude: -118.424759
- uuid: 265de11f-f92b-42ad-b618-28dd16950b7b
  space: b26
  title: Heavenly Hands & Heels
  latitude: 35.7549251
  longitude: -118.4246907
- uuid: 7bf0aaef-a10c-407b-99d1-7da5b270df59
  space: b25
  title: Crystalyn Creations
  comment: uncertain
  latitude: 35.7549204
  longitude: -118.4247117
- uuid: 410c0b06-0810-4eab-9476-b3c7d5ebad24
  space: b24
  title: Cowboy & Angels
  # comment: uncertain
  latitude: 35.7549563
  longitude: -118.4246775
# - uuid: 7fcaf13e-05d8-40cf-b128-dde1706d8605
#   space: b23
#   title: American Legion
#   latitude: 35.7549708
#   longitude: -118.42462
- uuid: 5700206e-efbf-4a75-82b1-f8c68f75d830
  space: b22
  title: Tucker's Tumblers & T's
  # comment: given as duplicate of b23
  latitude: 35.754994
  longitude: -118.4246069
# - uuid: d32eaac9-a472-45ff-8992-219e9b7fbd42
#   space: b21
#   latitude: 35.754988
#   longitude: -118.424534
- uuid: bb112cc4-8df4-4a89-9abc-06c1acc0c692
  space: b20
  title: Old West Kettle Korn
  latitude: 35.7550004
  longitude: -118.4245107
- uuid: 6884ac65-1e69-4b19-83d9-077abd83db5b
  space: b19
  title: NC Woodcraft & Jewlery
  latitude: 35.7551228
  longitude: -118.4243113
# - uuid: 310e634f-f70d-4f8b-8770-e879f7a1c8d7
#   space: b18
#   title: World Designs Inc
#   latitude: 35.7551534
#   longitude: -118.4242749
- uuid: c3edf5d6-bed8-4bcc-a292-e8d1b6e8434c
  space: b17
  title: Mediacom
  latitude: 35.7551369
  longitude: -118.424237
- uuid: 3b22b678-a1d2-4e95-9ddc-f0b3a4d4fe8c
  space: b16
  title: Mia Belle Candles
  latitude: 35.7551673
  longitude: -118.4241733
- uuid: d7f9b7ab-585b-4a08-890c-571cdfecb685
  space: b15
  title: International Treasures
  latitude: 35.7551671
  longitude: -118.4241613
# - uuid: 43a23c51-2cc4-4023-a19a-b589685d4444
#   space: b14
#   latitude: 35.755184
#   longitude: -118.4241379
- uuid: 6496f089-3d25-48e0-9dfa-c364df1ea74e
  space: b13
  title: Bittles Up
  latitude: 35.7551838
  longitude: -118.4241071
- uuid: eb84242e-9eff-4e53-9131-898221e0e085
  space: b12
  title: Hillbilly Flannel Co
  latitude: 35.755157
  longitude: -118.424066
# - uuid: 8828f3ba-96db-4856-af62-867ae81d12c1
#   space: b11
#   title: Touch of Fantasy
#   latitude: 35.7551984
#   longitude: -118.4240298
- uuid: d1613ead-805b-40e4-80ba-be35442ebad9
  space: b10
  title: Fellow 2 your Heart
  latitude: 35.755208
  longitude: -118.4239925
# - uuid: a872ae13-4642-4f3a-8f9f-70330b1cbedb
#   space: b9
#   latitude: 35.7552118
#   longitude: -118.4239407
- uuid: 2479b195-380f-4c82-8ced-8a9766eb162e
  space: b8
  title: Top of the Hill Jams
  latitude: 35.7552115
  longitude: -118.4239056
# - uuid: 69b54b15-6b53-4df1-9d1b-964045330c74
#   space: b7
#   latitude: 35.7552177
#   longitude: -118.4238535
# - uuid: 60ad908d-fe0a-44f2-b7c3-b48b975e5a37
#   space: b6
#   title: Music Boxes & Things
#   latitude: 35.7552189
#   longitude: -118.4238264
- uuid: d9c0cb3f-fad3-48f4-b9f1-69f4658146c8
  space: b5
  title: Alpaca Attitude
  latitude: 35.7552299
  longitude: -118.4237957
- uuid: 118a17d6-44ec-4fb5-aac4-db72e40a0562
  space: b4
  title: Drinkin Class Clothing
  latitude: 35.7552191
  longitude: -118.4237954
- uuid: 1c1b143b-8e76-4057-923f-0817143e3562
  space: b3
  title: iToyz
  latitude: 35.7552492
  longitude: -118.4237373
# - uuid: 5fa94ac6-732d-4fc2-9dd6-bb9d9ec76cd7
#   space: b2
#   latitude: 35.7552341
  # longitude: -118.4237342
- uuid: c6a52ec8-4c13-4a5b-8132-c44d9042ba24
  space: b1
  title: Paul's Products
  latitude: 35.7552127
  longitude: -118.4236747
- uuid: 40e02552-0d9e-4593-9fb0-976ac727ffef
  space: a30
  title: Kern County Firefighters Local 1301
  latitude: 35.7543591
  longitude: -118.425106
# - uuid: b1d8651b-6e9c-4a5a-8da5-76f945d0ea38
#   space: a31
#   latitude: 35.7543407
#   longitude: -118.4251085
- uuid: 1d6fe256-aae0-46c0-be25-d5e6c0a8fd83
  space: a32
  title: A Touch of Fantasy
  latitude: 35.754299
  longitude: -118.4251429
# - uuid: 4c65893a-e7a0-4642-8979-6704f6690f89
#   space: a33
#   title: KRV Chamber of Commerce
#   latitude: 35.7542816
#   longitude: -118.425147
- uuid: e677090b-26e5-480a-84d3-f51842a1f72e
  space: a34
  title: Martinez-Martinez LLC
  latitude: 35.7542711
  longitude: -118.4251802
- uuid: 2c34632d-2964-4fb7-8fbe-4a17740269fc
  space: a35
  title: International Treasures
  latitude: 35.7542306
  longitude: -118.4251778
# - uuid: 8edee844-9564-4d49-aa05-1d7570f01980
#   space: a36
#   latitude: 35.7542055
#   longitude: -118.4251991
- uuid: 415b616d-0f72-49fd-961f-5bda7864d136
  space: a37
  title: Rose & Shine / Krazey Dazey
  latitude: 35.7541045
  longitude: -118.4252165
- uuid: fe6d997f-5ce3-496f-bd69-aca1952fcbc7
  space: a38
  title: One Spade Youth
  latitude: 35.7540737
  longitude: -118.4252447
- uuid: d8da4f3a-1ddb-4a45-a704-2148f0455231
  space: a39
  title: Back Country Horsemen
  latitude: 35.7540468
  longitude: -118.4252014
- uuid: ebecc319-b4ca-4815-aeb9-5a3c3da47834
  space: a40
  title: Knights of Columbus
  latitude: 35.7540007
  longitude: -118.4252119
- uuid: d8bab79c-919f-47c9-93f0-cfebdcc62a52
  space: a41
  title: Merikans Freedom Brand
  latitude: 35.7539596
  longitude: -118.4252752
# - uuid: 523c867a-7993-460c-aa3d-78b3cb054f49
#   space: a42
#   latitude: 35.7539661
#   longitude: -118.4252812
- uuid: e42f353e-afba-49b0-9f3d-72aa1b15ed08
  space: a43
  title: AJ Dawson Marketing
  latitude: 35.7539206
  longitude: -118.4252541
# - uuid: 76ad51e3-afb6-46af-bc46-f5817d6f6187
#   space: a44
#   title: Myriad Group
#   latitude: 35.7538976
#   longitude: -118.4252532
- uuid: afaf5a80-e841-4af5-ab91-e0931db5929f
  space: a45
  title: KRV Outdoor Living
  latitude: 35.7538407
  longitude: -118.4252758
- uuid: 3ce967ef-bdf4-4747-ae72-18ee1ff760cf
  title: The Bug Dash
  space: a1
  latitude: 35.7550998
  longitude: -118.4236322
# - uuid: 108c9215-c1c2-4e00-bc46-098a9076f51d
#   space: a2
#   latitude: 35.7551329
#   longitude: -118.4237272
- uuid: 2792ff6c-431f-427a-9a67-09893a049d49
  space: Primos Gourmet Food
  # comment: given as Aaa3
  latitude: 35.755129
  longitude: -118.4237284
- uuid: f4472d79-effc-4419-924d-466d681e9548
  space: a4
  title: Viben Trees & A P Rustic Creations
  latitude: 35.7551375
  longitude: -118.4237358
- uuid: dbb1f5af-f3fa-482e-b62d-101d52021cd4
  space: a5
  title: A Spice above California
  latitude: 35.7551331
  longitude: -118.423804
# - uuid: c647e36b-1a1d-40f5-884f-db2ca1c037f9
#   space: a6
#   title: Katerina's Natural
#   latitude: 35.7551403
#   longitude: -118.4238553
- uuid: ffc35563-4597-4aad-9b71-9b5ab3a49046
  space: a7
  title: Maybe Knot Creations
  latitude: 35.7551198
  longitude: -118.4238911
- uuid: d5f0cf64-3949-46f0-8292-c9af05786d40
#   space: a10
#   title: Whiskey & Rebellion
#   comment: skipped over driveway
#   latitude: 35.7550933
#   longitude: -118.4240099
# - uuid: 4ce1c8cf-ae9a-4562-9909-c3c7c48b27e4
#   space: a11
#   title: Shay's Showroom
#   latitude: 35.7550919
#   longitude: -118.4240387
- uuid: c41271c1-596a-408c-947b-1969e1b04123
  space: a12
  title: MST Ceramics
  latitude: 35.7551052
  longitude: -118.4241102
# - uuid: c8cfdd85-6285-45c8-b046-06b29e0eddf8
#   space: a13
#   title: Apodaca Services
#   latitude: 35.7550907
#   longitude: -118.4241074
# - uuid: 4d34cce6-1e95-4de4-a909-4f6de7b956c7
#   space: a14
#   latitude: 35.7550781
#   longitude: -118.4241578
- uuid: 6263e444-460e-4c8d-9d82-3836c06310d0
  space: a15
  title: The Neat Seat
  latitude: 35.7550415
  longitude: -118.4241824
- uuid: fd1fd227-7757-45fe-ba31-662b4f5a77e4
  space: a16
  title: Bamboo Pillows and Sheets
  latitude: 35.7550416
  longitude: -118.424243
- uuid: 1f375957-0b29-4e84-a466-8217aa539a97
  space: a17
  title: Licorice Ropes
  latitude: 35.7550473
  longitude: -118.4242821
- uuid: 1899bea4-1ed7-430e-9ca2-284687aa1f4d
  space: a18
  title: Sawduzz Creations
  latitude: 35.7549373
  longitude: -118.4244971
# - uuid: 4ee649b8-4342-4698-9fec-1788b4a0455b
#   space: a19
#   title: Saw Dust Creations
#   latitude: 35.7549553
#   longitude: -118.424531
# - uuid: 55025ae7-617c-477f-8049-8f5aa4b7b8ab
#   space: a20
#   title: America's Job/Employer's Training Resource
#   latitude: 35.7549388
#   longitude: -118.4245023
- uuid: b7cb500d-d7b8-4988-9947-3d3e93f361dd
  space: a21
  title: Cutco Cutlery
  latitude: 35.7549005
  longitude: -118.424582
- uuid: 6a1d3361-ccdd-4e42-9f0c-7d2656f2aec9
  space: a22
  title: Karl's Woodcraft
  latitude: 35.7548194
  longitude: -118.42465
- uuid: 94d8672c-6a05-41d2-8f17-5e3f508f43f0
  space: a23
  title: A Little Bit of Everything
  latitude: 35.7548235
  longitude: -118.4247092
# - uuid: 900ea326-d7b4-490c-8416-7997e3ad17c8
#   space: a24
#   title: A Little Bit of Everything
#   latitude: 35.7548142
#   longitude: -118.424712
- uuid: b58af6b4-6821-4642-84ff-ddea11ceeb77
  space: a25
  title: Paul's Products
  latitude: 35.7547719
  longitude: -118.4247643
# - uuid: 0a76a629-0dd6-4135-b657-961e3d7ea5ed
#   space: a26
#   latitude: 35.7547402
#   longitude: -118.4247905
- uuid: 65aa8c75-f7d8-4b2a-84d9-a4795b931eb8
  space: a27
  title: Kern River Knives
  latitude: 35.7547401
  longitude: -118.4247984
- uuid: 513acf33-9dc1-442b-81be-b440230b2f5c
  title: Sweet Adelines
  description: Pastrami Sandwiches
  latitude: 35.755154
  longitude: -118.4249156
# - uuid: 64b1ce20-5022-4578-8aa2-882b94156caf
#   title: Schroeder's Kettle Corn
#   latitude: 35.7546047
#   longitude: -118.4253694
# - uuid: 63ce268b-55b9-4163-b988-dd3ba2fe8537
#   title: Rotary Club - KRV
#   latitude: 35.7550727
#   longitude: -118.425014
- uuid: 7ad441d6-ed5e-43e4-b0d7-e2dfc484f7c5
  space: c40
  title: White Blanket Taco Trailer
  latitude: 35.75514354
  longitude: -118.42473733
- uuid: edf88e91-779f-47fb-a9e7-444ced9ca336
  space: c33
  title: California Redwood Signs
  latitude: 35.75544993
  longitude: -118.42477602
- uuid: 187e3bb0-1063-4240-99ec-7dfb318eb8c4
  title: Bob Powers Books
  latitude: 35.75527165
  longitude: -118.42499994
- uuid: 09836e67-f7e5-42da-80c6-d31db1270d80
  title: Strength of Shadow
  latitude: 35.75532762
  longitude: -118.42478936
- uuid: f9312b31-a4c9-4262-82dd-27cba6efae11
  title: Dust 2 Dust
  latitude: 35.75529155
  longitude: -118.42486919
- uuid: 71878142-d73a-4fde-bfd3-6e342d30d444
  title: Whiskey and Rebellion
  space: a9
  latitude: 35.75542837
  longitude: 118.42163086
- uuid: aa8bc6fc-af60-40be-b9af-11c72cac2425
  title: Kern River Conservancy
  latitude: 35.75555800
  longitude: -118.42439580
- uuid: 771f4873-2af8-4d4d-bee1-49f7f5a3fdba
  title: Fusion Energy
  latitude: 35.75542837
  longitude: -118.42163086
- uuid: e5f63abe-c637-4bff-8d68-b31bc0f45ce4
  title: Isabella Lake Fishing Derby
  latitude: 35.75521070
  longitude: -118.42546105
- uuid: 33de747e-ca29-47fa-a319-5041302021ce
  title: Rotary Club KRV
  latitude: 35.75514976
  longitude: -118.42514992
- uuid: cced92c1-1edc-493d-9893-7166e94ef098
  title: old Isabella Coffee Co
  latitude: 35.75542837
  longitude: 118.42163086
- uuid: 50d70b7c-20d9-4cb5-b276-d8c6646306eb
  title: Wild West Rodeo Gear
  latitude: 35.75505110
  longitude: -118.42507730
- uuid: 1cc7fba6-5a71-473d-ae69-1a094af9a1a8
  title: Rad Rags
  latitude: 35.75495821
  longitude: -118.42554688
- uuid: 2b589782-b3b0-4d6e-a0d8-d87681bfcb33
  title: Karen & Rainbow
  latitude: 35.75515846
  longitude: -118.42533231
- uuid: b0c51497-6202-4e36-9abd-f28c776e8d0d
  title: Simply Jeri
  latitude: 35.75517588
  longitude: -118.42556834
- uuid: ffe1fe76-10a0-460e-b803-e66ad8c3a77a
  title: Kelso Creek Farms
  latitude: 35.75516717
  longitude: -118.42517138
- uuid: c2d603b6-749e-4454-bdca-07fcdebc5df1
  title: Rustic River Designs
  latitude: 35.75545449
  longitude: -118.42493534
- uuid: 5559296a-c8e7-4835-ab0f-9801be9d1b12
  title: Coastal Wood
  latitude: 35.75550673
  longitude: -118.42495680
- uuid: 1d92fa24-7071-4a56-8675-156d57e51c2d
  title: Awesome Rocks and Jewelry
  latitude: 35.75554156
  longitude: -118.42467785
- uuid: 5ee52e1e-df76-4507-b669-574c01e86b1e
  title: Meraki Out West
  latitude: 35.75559380
  longitude: -118.42487097
- uuid: e0d623e1-3595-44c4-8ede-aa08b65b37e4
  title: Softub
  latitude: 35.75542837
  longitude: -118.42163086
- uuid: 176b04ee-3f1f-48ff-bc35-25d8cda3d60d
  title: McNally's Outpost
  latitude: 35.75565260
  longitude: -118.42473360
- uuid: 4efe2964-c86e-4490-9f25-24e4ddfb119b
  title: Wreaths by Cindy Design
  latitude: 35.75542837
  longitude: -118.42163086
- uuid: 8164b633-b0be-4ddf-ab07-99e6491182d2
  title: Strength of Shadow
  latitude: 35.75543708
  longitude: -118.42403412
- uuid: 9b910b7c-5583-49c5-891d-6464b101b04e
  title: Joyful Ranch Farmhouse Market
  latitude: 35.75542837
  longitude: -118.42163086
- uuid: 0bb86c30-01e3-4b7d-af67-d10fc22739e4
  title: Hairthings
  latitude: 35.75564604
  longitude: -118.42479587
- uuid: 44a921bf-1c75-43b1-bb54-929f213e4c7f
  title: Katerina's Entitlement
  latitude: 35.75553285
  longitude: -118.42471004
- uuid: ee6e3e7a-1bab-4725-961e-42ed0867ff0a
  title: Bake a Beanie
  latitude: 35.75542837
  longitude: -118.42163086
- uuid: 1eb58fd3-873a-4398-ab5f-b6223a1584ce
  title: Ray of Light
  latitude: 35.75562310
  longitude: -118.42479910
- uuid: 8cc207a1-d7cc-43e8-926e-e9706f0a0c08
  title: Adriel Arts
  latitude: 35.75542837
  longitude: -118.42403412
- uuid: 0c4b1e52-f299-49af-86ce-f395efed1623
  title: Niihao
  latitude: 35.75573310
  longitude: -118.42494607
- uuid: b045adc1-5741-4438-8a63-b19932725c53
  title: Galaxy
  latitude: 35.66454877
  longitude: -118.45081329
- uuid: 885697b2-ca08-4596-8a86-b281b3a9dfd9
  title: Kamimba Basket
  latitude: 35.75552050
  longitude: -118.42491240
- uuid: 96818213-ceea-423b-acf2-b609c1053ef1
  title: Kassandra Ivy Jewelry
  latitude: 35.75528036
  longitude: -118.42509627
